[
    {
        "id": "syracuse_ny",
        "name": "Syracuse",
        "state": "NY",
        "lat": 43.111,
        "lon": -76.104,
        "station_id": "GHCND:USW00014771",
        "tags": [
            "NY_Top10",
            "Snow_Belt"
        ]
    },
    {
        "id": "buffalo_ny",
        "name": "Buffalo",
        "state": "NY",
        "lat": 42.941,
        "lon": -78.736,
        "station_id": "GHCND:USW00014733",
        "tags": [
            "NY_Top10",
            "Snow_Belt"
        ]
    },
    {
        "id": "rochester_ny",
        "name": "Rochester",
        "state": "NY",
        "lat": 43.117,
        "lon": -77.677,
        "station_id": "GHCND:USW00014768",
        "tags": [
            "NY_Top10"
        ]
    },
    {
        "id": "albany_ny",
        "name": "Albany",
        "state": "NY",
        "lat": 42.747,
        "lon": -73.802,
        "station_id": "GHCND:USW00014735",
        "tags": [
            "NY_Top10"
        ]
    },
    {
        "id": "binghamton_ny",
        "name": "Binghamton",
        "state": "NY",
        "lat": 42.209,
        "lon": -75.980,
        "station_id": "GHCND:USW00004725",
        "tags": [
            "NY_Top10"
        ]
    },
    {
        "id": "new_york_ny",
        "name": "New York (Central Park)",
        "state": "NY",
        "lat": 40.779,
        "lon": -73.969,
        "station_id": "GHCND:USW00094728",
        "tags": [
            "NY_Top10",
            "US_Top50"
        ]
    },
    {
        "id": "boston_ma",
        "name": "Boston",
        "state": "MA",
        "lat": 42.361,
        "lon": -71.010,
        "station_id": "GHCND:USW00014739",
        "tags": [
            "US_Top50"
        ]
    },
    {
        "id": "chicago_il",
        "name": "Chicago (O'Hare)",
        "state": "IL",
        "lat": 41.977,
        "lon": -87.905,
        "station_id": "GHCND:USW00094846",
        "tags": [
            "US_Top50"
        ]
    },
    {
        "id": "denver_co",
        "name": "Denver",
        "state": "CO",
        "lat": 39.858,
        "lon": -104.673,
        "station_id": "GHCND:USW00003017",
        "tags": [
            "US_Top50"
        ]
    },
    {
        "id": "minneapolis_mn",
        "name": "Minneapolis",
        "state": "MN",
        "lat": 44.883,
        "lon": -93.229,
        "station_id": "GHCND:USW00014922",
        "tags": [
            "US_Top50"
        ]
    },
    {
        "id": "detroit_mi",
        "name": "Detroit",
        "state": "MI",
        "lat": 42.212,
        "lon": -83.353,
        "station_id": "GHCND:USW00094847",
        "tags": [
            "US_Top50"
        ]
    },
    {
        "id": "anchorage_ak",
        "name": "Anchorage",
        "state": "AK",
        "lat": 61.169,
        "lon": -149.992,
        "station_id": "GHCND:USW00026451",
        "tags": [
            "US_Top50",
            "Snow_Belt"
        ]
    },
    {
        "id": "salt_lake_city_ut",
        "name": "Salt Lake City",
        "state": "UT",
        "lat": 40.778,
        "lon": -111.969,
        "station_id": "GHCND:USW00024127",
        "tags": [
            "US_Top50"
        ]
    },
    {
        "id": "pittsburgh_pa",
        "name": "Pittsburgh",
        "state": "PA",
        "lat": 40.491,
        "lon": -80.233,
        "station_id": "GHCND:USW00094823",
        "tags": [
            "US_Top50"
        ]
    }
]